[
    {
      "id": 2,
      "name": "Recoger en Tienda Cumbres",
      "code": "HEBPC2978",
      "latitude": 25.8322,
      "longitude": -100.2978,
      "address": "Ave. Paseo de los Leones No. 3399, Col. Cumbres",
      "addressTwo": "",
      "country": "Mexico",
      "city": "Monterrey",
      "state": "Nuevo Leon",
      "zipCode": 123,
      "openHour": 8,
      "closeHour": 16,
      "nextDeliveryTime": 12
    },
    {
      "id": 4,
      "name": "Recoger en tienda Chipinque",
      "code": "HEBPC2980",
      "latitude": 25.749346,
      "longitude": -100.259866,
      "address": "Ave. Gomez Morin #300, Col. del Valle",
      "addressTwo": "",
      "country": "Mexico",
      "city": "Monterrey",
      "state": "Nuevo Leon",
      "zipCode": 123,
      "openHour": 9,
      "closeHour": 17,
      "nextDeliveryTime": 13
    },
    {
      "id": 6,
      "name": "Recoger en tienda Sendero",
      "code": "HEBPC2979",
      "latitude": 25.871035,
      "longitude": -100.17329,
      "address": "Ave. Sendero Nte, Col #1001, Privadas de An치huac",
      "addressTwo": "",
      "country": "Mexico",
      "city": "Monterrey",
      "state": "Nuevo Leon",
      "zipCode": 123,
      "openHour": 7,
      "closeHour": 18,
      "nextDeliveryTime": 12
    },
    {
      "id": 8,
      "name": "Recoger en tienda Contry",
      "code": "HEBPC2951",
      "latitude": 25.7261055,
      "longitude": -100.1750157,
      "address": "Av. Eugenio Garza Sada 4321",
      "addressTwo": "",
      "country": "Mexico",
      "city": "Monterrey",
      "state": "Nuevo Leon",
      "zipCode": 123,
      "openHour": 8,
      "closeHour": 19,
      "nextDeliveryTime": 13
    },
    {
      "id": 1,
      "name": "Domicilios desde Cumbres",
      "code": "HEB2978",
      "latitude": 25.7322,
      "longitude": -100.3978,
      "address": "Ave. Paseo de los Leones No. 3399, Col. Cumbres",
      "addressTwo": "",
      "country": "Mexico",
      "city": "Monterrey",
      "state": "Nuevo Leon",
      "zipCode": 123,
      "openHour": 9,
      "closeHour": 19,
      "nextDeliveryTime": 13
    },
    {
      "id": 3,
      "name": "Domicilios desde eFC Zona Valle",
      "code": "HEB2992",
      "latitude": 25.6764098,
      "longitude": -100.3733956,
      "address": "AARON SAENZ 1717 COLONIA SANTA MARIA C.P.",
      "addressTwo": "",
      "country": "Mexico",
      "city": "Monterrey",
      "state": "Nuevo Leon",
      "zipCode": 123,
      "openHour": 6,
      "closeHour": 19,
      "nextDeliveryTime": 13
    },
    {
      "id": 5,
      "name": "Domicilio desde Sendero",
      "code": "HEB2979",
      "latitude": 25.771035,
      "longitude": -100.27329,
      "address": "Ave. Sendero Nte, Col #1001, Privadas de An치huac",
      "addressTwo": "",
      "country": "Mexico",
      "city": "Monterrey",
      "state": "Nuevo Leon",
      "zipCode": 123,
      "openHour": 10,
      "closeHour": 19,
      "nextDeliveryTime": 15
    },
    {
      "id": 7,
      "name": "Domicilios desde Contry",
      "code": "HEB2951",
      "latitude": 25.6261055,
      "longitude": -100.2750157,
      "address": "Av. Eugenio Garza Sada 4321",
      "addressTwo": "",
      "country": "Mexico",
      "city": "Monterrey",
      "state": "Nuevo Leon",
      "zipCode": 123,
      "openHour": 11,
      "closeHour": 19,
      "nextDeliveryTime": 15
    },
    {
      "id": 10,
      "name": "Recoger en Tienda Cumbres",
      "code": "HEBPC2978",
      "latitude": 25.8322,
      "longitude": -100.2978,
      "address": "Ave. Paseo de los Leones No. 3399, Col. Cumbres",
      "addressTwo": "",
      "country": "Mexico",
      "city": "Monterrey",
      "state": "Nuevo Leon",
      "zipCode": 123,
      "openHour": 8,
      "closeHour": 15,
      "nextDeliveryTime": 16
    },
    {
      "id": 12,
      "name": "Recoger en tienda Chipinque",
      "code": "HEBPC2980",
      "latitude": 25.749346,
      "longitude": -100.259866,
      "address": "Ave. Gomez Morin #300, Col. del Valle",
      "addressTwo": "",
      "country": "Mexico",
      "city": "Monterrey",
      "state": "Nuevo Leon",
      "zipCode": 123,
      "openHour": 7,
      "closeHour": 20,
      "nextDeliveryTime": 16
    },
    {
      "id": 14,
      "name": "Recoger en tienda Sendero",
      "code": "HEBPC2979",
      "latitude": 25.871035,
      "longitude": -100.17329,
      "address": "Ave. Sendero Nte, Col #1001, Privadas de An치huac",
      "addressTwo": "",
      "country": "Mexico",
      "city": "Monterrey",
      "state": "Nuevo Leon",
      "zipCode": 123,
      "openHour": 8,
      "closeHour": 20,
      "nextDeliveryTime": 16
    },
    {
      "id": 9,
      "name": "Domicilios desde Cumbres",
      "code": "HEB2978",
      "latitude": 25.7322,
      "longitude": -100.3978,
      "address": "Ave. Paseo de los Leones No. 3399, Col. Cumbres",
      "addressTwo": "",
      "country": "Mexico",
      "city": "Monterrey",
      "state": "Nuevo Leon",
      "zipCode": 123,
      "openHour": 5,
      "closeHour": 20,
      "nextDeliveryTime": 16
    },
    {
      "id": 11,
      "name": "Domicilios desde eFC Zona Valle",
      "code": "HEB2992",
      "latitude": 25.6764098,
      "longitude": -100.3733956,
      "address": "AARON SAENZ 1717 COLONIA SANTA MARIA C.P.",
      "addressTwo": "",
      "country": "Mexico",
      "city": "Monterrey",
      "state": "Nuevo Leon",
      "zipCode": 123,
      "openHour": 11,
      "closeHour": 21,
      "nextDeliveryTime": 13
    },
    {
      "id": 13,
      "name": "Domicilio desde Sendero",
      "code": "HEB2979",
      "latitude": 25.771035,
      "longitude": -100.27329,
      "address": "Ave. Sendero Nte, Col #1001, Privadas de An치huac",
      "addressTwo": "",
      "country": "Mexico",
      "city": "Monterrey",
      "state": "Nuevo Leon",
      "zipCode": 123,
      "openHour": 9,
      "closeHour": 22,
      "nextDeliveryTime": 15
    },
    {
      "id": 15,
      "name": "Domicilios desde Contry",
      "code": "HEB2951",
      "latitude": 25.6261055,
      "longitude": -100.2750157,
      "address": "Av. Eugenio Garza Sada 4321",
      "addressTwo": "",
      "country": "Mexico",
      "city": "Monterrey",
      "state": "Nuevo Leon",
      "zipCode": 123,
      "openHour": 8,
      "closeHour": 23,
      "nextDeliveryTime": 13
    },
    {
      "id": 16,
      "name": "Recoger en tienda Contry",
      "code": "HEBPC2951",
      "latitude": 25.7261055,
      "longitude": -100.1750157,
      "address": "Av. Eugenio Garza Sada 4321",
      "addressTwo": "",
      "country": "Mexico",
      "city": "Monterrey",
      "state": "Nuevo Leon",
      "zipCode": 123,
      "openHour": 7,
      "closeHour": 23,
      "nextDeliveryTime": 12
    },
    {
      "id": 17,
      "name": "Prev catalog",
      "code": "HEB-OLD",
      "latitude": 5.7322,
      "longitude": -0.3978,
      "address": "test",
      "addressTwo": "",
      "country": "Mexico",
      "city": "Monterrey",
      "state": "Nuevo Leon",
      "zipCode": 123,
      "openHour": 6,
      "closeHour": 22,
      "nextDeliveryTime": 11
    }
  ]